<?xml version="1.0" encoding="UTF-8" ?>
<searchresults attribution='Data © OpenStreetMap contributors, ODbL 1.0. http://www.openstreetmap.org/copyright' querystring='1552' exclude_place_ids='288255226,286475106,286496487,330733075,288836335' more_url='https://nominatim.openstreetmap.org/search/?postalcode=1552&amp;exclude_place_ids=288255226%2C286475106%2C286496487%2C330733075%2C288836335&amp;format=xml'>
<place place_id='288255226' place_rank='21' address_rank='11' boundingbox="47.3596288,47.6796288,18.8920163,19.2120163" lat='47.5196288' lon='19.0520163' display_name='Újlipótváros, XIII. kerület, Budapest, Közép-Magyarország, 1552, Magyarország' class='place' type='postcode' importance='0.335'/><place place_id='286475106' place_rank='21' address_rank='11' boundingbox="46.61149780536,46.93149780536,6.7562961527837,7.0762961527837" lat='46.771497805359616' lon='6.916296152783674' display_name='Trey, District de la Broye-Vully, Vaud, 1552, Schweiz/Suisse/Svizzera/Svizra' class='place' type='postcode' importance='0.335'/><place place_id='286496487' place_rank='21' address_rank='11' boundingbox="55.514974164179,55.834974164179,12.412383701493,12.732383701493" lat='55.67497416417908' lon='12.572383701492537' display_name='Københavns Kommune, Region Hovedstaden, 1552, Danmark' class='place' type='postcode' importance='0.335'/><place place_id='330733075' place_rank='21' address_rank='11' boundingbox="31.8782718,32.1982718,44.1982071,44.5182071" lat='32.0382718' lon='44.3582071' display_name='ناحية مرکز قضاء النجف, قضاء النجف, محافظة النجف, 1552, العراق' class='place' type='postcode' importance='0.335'/><place place_id='288836335' place_rank='21' address_rank='11' boundingbox="14.424655003363,14.744655003363,120.88624607418,121.20624607418" lat='14.584655003362549' lon='121.04624607418455' display_name='Mandaluyong, Eastern Manila District, Metro Manila, 1552, Philippines' class='place' type='postcode' importance='0.335'/></searchresults>