[
    {
        "test_id": 1,
        "test_parameters": {
            "request_path": "/search"
        },
        "request_parameters": {
            "postalcode": 1234
        },
        "expected_result":  [{"place_id":286343678,"licence":"Data © OpenStreetMap contributors, ODbL 1.0. https://osm.org/copyright","boundingbox":["-16.65845155","-16.33845155","-68.293346209067","-67.973346209067"],"lat":"-16.49845155","lon":"-68.13334620906744","display_name":"Centro, La Paz, Pedro Domingo Murillo, La Paz, 1234, Bolivia","class":"place","type":"postcode","importance":0.33499999999999996},{"place_id":286334771,"licence":"Data © OpenStreetMap contributors, ODbL 1.0. https://osm.org/copyright","boundingbox":["47.9665307","48.2865307","16.1462613","16.4662613"],"lat":"48.1265307","lon":"16.3062613","display_name":"KG Siebenhirten, Liesing, Wien, 1234, Österreich","class":"place","type":"postcode","importance":0.33499999999999996},{"place_id":286328531,"licence":"Data © OpenStreetMap contributors, ODbL 1.0. https://osm.org/copyright","boundingbox":["-34.7810074","-34.4610074","-58.584378633333","-58.264378633333"],"lat":"-34.621007399999996","lon":"-58.42437863333333","display_name":"Buenos Aires, Comuna 6, Ciudad Autónoma de Buenos Aires, 1234, Argentina","class":"place","type":"postcode","importance":0.33499999999999996},{"place_id":288268000,"licence":"Data © OpenStreetMap contributors, ODbL 1.0. https://osm.org/copyright","boundingbox":["24.4714957","24.7914957","73.4767816","73.7967816"],"lat":"24.6314957","lon":"73.6367816","display_name":"Badgaon Tehsil, Udaipur, Rajasthan, 1234, India","class":"place","type":"postcode","importance":0.33499999999999996},{"place_id":288258719,"licence":"Data © OpenStreetMap contributors, ODbL 1.0. https://osm.org/copyright","boundingbox":["-0.46415633333333","-0.14415633333333","100.20921987253","100.52921987253"],"lat":"-0.3041563333333333","lon":"100.36921987253106","display_name":"Agam, Sumatera Barat, 1234, Indonesia","class":"place","type":"postcode","importance":0.33499999999999996},{"place_id":288287244,"licence":"Data © OpenStreetMap contributors, ODbL 1.0. https://osm.org/copyright","boundingbox":["35.285000366667","35.605000366667","49.035233933333","49.355233933333"],"lat":"35.44500036666667","lon":"49.195233933333334","display_name":"دهستان درگزین علیا, بخش قروه در جزین, شهرستان درگزین, استان همدان, 1234, ایران","class":"place","type":"postcode","importance":0.33499999999999996},{"place_id":286474921,"licence":"Data © OpenStreetMap contributors, ODbL 1.0. https://osm.org/copyright","boundingbox":["46.015333842308","46.335333842308","5.9952392869396","6.3152392869396"],"lat":"46.17533384230771","lon":"6.15523928693962","display_name":"Veyrier, Genève, 1234, Schweiz/Suisse/Svizzera/Svizra","class":"place","type":"postcode","importance":0.33499999999999996},{"place_id":286481610,"licence":"Data © OpenStreetMap contributors, ODbL 1.0. https://osm.org/copyright","boundingbox":["6.3514253","6.6714253","-74.5496951","-74.2296951"],"lat":"6.5114253","lon":"-74.3896951","display_name":"Cimitarra, Santander, 1234, Colombia","class":"place","type":"postcode","importance":0.33499999999999996},{"place_id":286340395,"licence":"Data © OpenStreetMap contributors, ODbL 1.0. https://osm.org/copyright","boundingbox":["23.5956858","23.9156858","90.23684735","90.55684735"],"lat":"23.755685800000006","lon":"90.39684735000002","display_name":"ঢাকা জেলা, ঢাকা বিভাগ, 1234, Bangladesh","class":"place","type":"postcode","importance":0.33499999999999996},{"place_id":288286743,"licence":"Data © OpenStreetMap contributors, ODbL 1.0. https://osm.org/copyright","boundingbox":["33.610422828571","33.930422828571","44.260622614286","44.580622614286"],"lat":"33.77042282857143","lon":"44.42062261428572","display_name":"ناحية مرکز قضاء الخالص, قضاء الخالص, محافظة ديالى, 1234, العراق","class":"place","type":"postcode","importance":0.33499999999999996}]
    },

    {
        "test_id": 2,
        "test_parameters": {
            "request_path": "/search"
        },
        "request_parameters": {
            "postalcode": 4321,
            "limit": 1
        },
        "expected_result": [{"place_id":286327426,"licence":"Data © OpenStreetMap contributors, ODbL 1.0. https://osm.org/copyright","boundingbox":["25.0761692","25.3961692","55.1261602","55.4461602"],"lat":"25.2361692","lon":"55.2861602","display_name":"الجافلية, دبي, 4321, الإمارات العربية المتحدة","class":"place","type":"postcode","importance":0.33499999999999996}]
    },

    {
        "test_id": 3,
        "test_parameters": {
            "request_path": "/search"
        },
        "request_parameters": {
            "q": "Санкт-Петербург, Большой Сампсониевский 60А"
        },
        "expected_result": [{"place_id":250853310,"licence":"Data © OpenStreetMap contributors, ODbL 1.0. https://osm.org/copyright","osm_type":"way","osm_id":770018895,"boundingbox":["59.9949054","59.995002","30.3311213","30.3311633"],"lat":"59.9949054","lon":"30.3311633","display_name":"Большой Сампсониевский проспект, Лесной, округ Светлановское, Санкт-Петербург, Северо-Западный федеральный округ, 194156, Россия","class":"highway","type":"primary","importance":0.5},{"place_id":251897648,"licence":"Data © OpenStreetMap contributors, ODbL 1.0. https://osm.org/copyright","osm_type":"way","osm_id":771317323,"boundingbox":["59.9882371","59.9883402","30.3336726","30.3337338"],"lat":"59.9882371","lon":"30.3337338","display_name":"Большой Сампсониевский проспект, Выборгская сторона, округ Сампсониевское, Санкт-Петербург, Северо-Западный федеральный округ, 194153, Россия","class":"highway","type":"primary","importance":0.5},{"place_id":251386266,"licence":"Data © OpenStreetMap contributors, ODbL 1.0. https://osm.org/copyright","osm_type":"way","osm_id":769976518,"boundingbox":["59.9948166","59.9948528","30.3310054","30.331018"],"lat":"59.9948528","lon":"30.3310054","display_name":"Большой Сампсониевский проспект, Выборгская сторона, округ Сампсониевское, Санкт-Петербург, Северо-Западный федеральный округ, 194156, Россия","class":"highway","type":"primary","importance":0.5},{"place_id":214635229,"licence":"Data © OpenStreetMap contributors, ODbL 1.0. https://osm.org/copyright","osm_type":"way","osm_id":541363202,"boundingbox":["59.9851111","59.9882371","30.3337338","30.3349711"],"lat":"59.9867835","lon":"30.3343092","display_name":"Большой Сампсониевский проспект, Выборгская сторона, округ Сампсониевское, Санкт-Петербург, Северо-Западный федеральный округ, 194100, Россия","class":"highway","type":"primary","importance":0.5},{"place_id":248133360,"licence":"Data © OpenStreetMap contributors, ODbL 1.0. https://osm.org/copyright","osm_type":"way","osm_id":734615689,"boundingbox":["59.9705555","59.9747165","30.3391526","30.3408338"],"lat":"59.9725267","lon":"30.3400345","display_name":"Большой Сампсониевский проспект, Выборгская сторона, округ Сампсониевское, Санкт-Петербург, Северо-Западный федеральный округ, 194044, Россия","class":"highway","type":"secondary","importance":0.5},{"place_id":252709319,"licence":"Data © OpenStreetMap contributors, ODbL 1.0. https://osm.org/copyright","osm_type":"way","osm_id":766216502,"boundingbox":["59.9827566","59.9843142","30.3353705","30.3360163"],"lat":"59.9841549","lon":"30.3354366","display_name":"Большой Сампсониевский проспект, Выборгская сторона, округ Сампсониевское, Санкт-Петербург, Северо-Западный федеральный округ, 194100, Россия","class":"highway","type":"secondary","importance":0.5},{"place_id":116548245,"licence":"Data © OpenStreetMap contributors, ODbL 1.0. https://osm.org/copyright","osm_type":"way","osm_id":61604690,"boundingbox":["59.9558595","59.9567395","30.3432033","30.3439204"],"lat":"59.9566088","lon":"30.3437696","display_name":"Большой Сампсониевский проспект, Выборгская сторона, округ Сампсониевское, Санкт-Петербург, Северо-Западный федеральный округ, 191187, Россия","class":"highway","type":"tertiary","importance":0.5},{"place_id":157285380,"licence":"Data © OpenStreetMap contributors, ODbL 1.0. https://osm.org/copyright","osm_type":"way","osm_id":227343515,"boundingbox":["59.9553463","59.9558796","30.3413387","30.3429636"],"lat":"59.9554104","lon":"30.3422801","display_name":"Большой Сампсониевский проспект, Выборгская сторона, округ Сампсониевское, Санкт-Петербург, Северо-Западный федеральный округ, 191187, Россия","class":"highway","type":"tertiary_link","importance":0.475},{"place_id":186268557,"licence":"Data © OpenStreetMap contributors, ODbL 1.0. https://osm.org/copyright","osm_type":"way","osm_id":367396509,"boundingbox":["59.9580788","59.9581832","30.3446054","30.3447706"],"lat":"59.9581832","lon":"30.3446054","display_name":"Большой Сампсониевский проспект, Выборгская сторона, округ Сампсониевское, Санкт-Петербург, Северо-Западный федеральный округ, 194175, Россия","class":"highway","type":"tertiary_link","importance":0.475}]
    },

    {
        "test_id": 4,
        "test_parameters": {
            "request_path": "/search"
        },
        "request_parameters": {
            "postalcode": 2321,
            "limit": 1
        },
        "expected_result": [{"place_id":286341039,"licence":"Data © OpenStreetMap contributors, ODbL 1.0. https://osm.org/copyright","boundingbox":["51.2835339136","51.6035339136","4.5564878533463","4.8764878533463"],"lat":"51.44353391360001","lon":"4.716487853346293","display_name":"Meer, Hoogstraten, Turnhout, Antwerpen, Vlaanderen, 2321, België / Belgique / Belgien","class":"place","type":"postcode","importance":0.33499999999999996}]
    },
    {
        "test_id": 5,
        "test_parameters": {
            "request_path": "/search"
        },
        "request_parameters": {
            "postalcode": 1552
        },
        "expected_result":  [{"place_id":288255226,"licence":"Data © OpenStreetMap contributors, ODbL 1.0. https://osm.org/copyright","boundingbox":["47.3596288","47.6796288","18.8920163","19.2120163"],"lat":"47.5196288","lon":"19.0520163","display_name":"Újlipótváros, XIII. kerület, Budapest, Közép-Magyarország, 1552, Magyarország","class":"place","type":"postcode","importance":0.33499999999999996},{"place_id":286475106,"licence":"Data © OpenStreetMap contributors, ODbL 1.0. https://osm.org/copyright","boundingbox":["46.61149780536","46.93149780536","6.7562961527837","7.0762961527837"],"lat":"46.771497805359616","lon":"6.916296152783674","display_name":"Trey, District de la Broye-Vully, Vaud, 1552, Schweiz/Suisse/Svizzera/Svizra","class":"place","type":"postcode","importance":0.33499999999999996},{"place_id":286496487,"licence":"Data © OpenStreetMap contributors, ODbL 1.0. https://osm.org/copyright","boundingbox":["55.514974164179","55.834974164179","12.412383701493","12.732383701493"],"lat":"55.67497416417908","lon":"12.572383701492537","display_name":"Københavns Kommune, Region Hovedstaden, 1552, Danmark","class":"place","type":"postcode","importance":0.33499999999999996},{"place_id":330733075,"licence":"Data © OpenStreetMap contributors, ODbL 1.0. https://osm.org/copyright","boundingbox":["31.8782718","32.1982718","44.1982071","44.5182071"],"lat":"32.0382718","lon":"44.3582071","display_name":"ناحية مرکز قضاء النجف, قضاء النجف, محافظة النجف, 1552, العراق","class":"place","type":"postcode","importance":0.33499999999999996},{"place_id":288836335,"licence":"Data © OpenStreetMap contributors, ODbL 1.0. https://osm.org/copyright","boundingbox":["14.424655003363","14.744655003363","120.88624607418","121.20624607418"],"lat":"14.584655003362549","lon":"121.04624607418455","display_name":"Mandaluyong, Eastern Manila District, Metro Manila, 1552, Philippines","class":"place","type":"postcode","importance":0.33499999999999996}]
    }
]